[
 {
   "key": "PFM-URA-199497",
   "latitude": -19.750240137283452,
   "longitude": -47.95924094617634,
   "name": "POLICIA CIVIL FORUM (ID:199497)"
 },
 {
   "key": "PFM-URA-179924",
   "latitude": -19.747613140051115,
   "longitude": -47.95107347329854,
   "name": "SDS (ID:179924)" 
 },
 {
   "key": "PFM-URA-179496",
   "latitude": -19.74488493967663,
   "longitude": -47.936764158435395,
   "name": "MELHOR EM CASA (ID:179496)"
 },
 {
   "key": "PFM-URA-216388",
   "latitude": -19.726941909052755,
   "longitude": -47.94063164309567,
   "name": "UER PONTO 2 (ID:216388)"
 },
 {
    "key": "PFM-URA-179915",
    "latitude": -19.748612750457653,
    "longitude": -47.951034717340662,
    "name": "CENTRO ADMINISTRATIVO PONTO 2 (ID:179915)"
 },
 {
   "key": "PFM-URA-198278",
   "latitude": -19.737147913163696,
   "longitude": -47.92459021549118,
   "name": "DEMANDA OPERACIONAL DA GUARDA CIVIL MUNICIPAL (ID:198278)"
 },
 {
   "key": "PFM-URA-179487",
   "latitude": -19.738440938066265,
   "longitude": -47.96850993083399,
   "name": "CRAS TUTUNAS (ID:179487)"
 },
  {
   "key": "PFM-URA-179480",
   "latitude": -19.74829358113081,
   "longitude": -47.93698680360633,
   "name": "CONSELHO MUNICIPAL DE EDUCAÇÃO (ID:179480)"
 },
   {
   "key": "PFM-URA-195019",
   "latitude": -19.736675122760964,
   "longitude": -47.94731841734089,
   "name": "DETIC - DEPARTAMENTO DE TECNOLOGIA E COMUNICAÇÃO (ID:195019)"
 },
   {
   "key": "PFM-URA-179576",
   "latitude": -19.741195226434336,
   "longitude": -47.959714042477366,
   "name": "AMBULÂNCIA (ID:179576)"
 },
   {
   "key": "PFM-URA-190543",
   "latitude": -19.732363417125573,
   "longitude": -47.93958845966957,
   "name": "OPERACIONAL DEFESA CIVIL (ID:190543)"
 },
    {
   "key": "PFM-URA-191775",
   "latitude": -19.737269717754867,
   "longitude": -47.93010644617618,
   "name": "SRT DR INACIO FERREIRA (ID:191775)"
 }
]
