[
 {
   "key": "PFM-URA-199497",
   "latitude": -19.750240137283452,
   "longitude": -47.95924094617634,
   "name": "POLICIA CIVIL FORUM (ID:199497)"
 },
 {
   "key": "PFM-URA-179924",
   "latitude": -19.747613140051115,
   "longitude": -47.95107347329854,
   "name": "SDS (ID:179924)" 
 },
 {
   "key": "PFM-URA-179496",
   "latitude": -19.74488493967663,
   "longitude": -47.936764158435395,
   "name": "MELHOR EM CASA (ID:179496)"
 },
 {
   "key": "PFM-URA-216388",
   "latitude": -19.726941909052755,
   "longitude": -47.94063164309567,
   "name": "UER PONTO 2 (ID:216388)"
 },
 {
    "key": "PFM-URA-179915",
    "latitude": -19.748612750457653,
    "longitude": -47.951034717340662,
    "name": "CENTRO ADMINISTRATIVO PONTO 2 (ID:179915)"
 },
 {
   "key": "PFM-URA-198278",
   "latitude": -19.737147913163696,
   "longitude": -47.92459021549118,
   "name": "DEMANDA OPERACIONAL DA GUARDA CIVIL MUNICIPAL (ID:198278)"
 },
 {
   "key": "PFM-URA-179487",
   "latitude": -19.738440938066265,
   "longitude": -47.96850993083399,
   "name": "CRAS TUTUNAS"
 }
]
